[
  {
    "name": "AUSÍAS MARCH",
    "address": "Calle Ceres, 24, C.P. 03009",
    "phone": "965 91 90 30",
    "email": "03001544@edu.gva.es",
    "id": 1,
    "web": "https://",
    "isVisited": false,
    "hasQuota": false,
    "comments": "",
    "lat": 38.0889209,
    "lng": -0.7066778
  },
  {
    "name": "AZORÍN",
    "address": "Calle Biólogo Konrad Lorenz, 5, C.P. 03015",
    "phone": "965 93 25 10",
    "email": "03009683@edu.gva.es",
    "id": 2,
    "web": "https://",
    "isVisited": true,
    "hasQuota": false,
    "comments": "",
    "lat": 38.3638571,
    "lng": -0.4709037
  },
  {
    "name": "BENALÚA",
    "address": "Calle Doctor Just, 70, C.P. 03007",
    "phone": "965 91 90 40",
    "email": "03000734@edu.gva.es",
    "id": 3,
    "web": "https://",
    "isVisited": false,
    "hasQuota": false,
    "comments": "",
    "lat": 38.3413575,
    "lng": -0.497246
  },
  {
    "name": "CAMPOAMOR",
    "address": "Paseo de Campoamor, 1, C.P. 03010",
    "phone": "965 91 97 30",
    "email": "03001601@edu.gva.es",
    "id": 4,
    "web": "https://",
    "isVisited": false,
    "hasQuota": false,
    "comments": "",
    "lat": 38.3537544,
    "lng": -0.4863349
  },
  {
    "name": "CARLOS ARNICHES",
    "address": "Calle Alonso Cano, 19, C.P. 03014",
    "phone": "965 91 97 40",
    "email": "03001571@edu.gva.es",
    "id": 5,
    "web": "https://portal.edu.gva.es/03001571/es/centro/",
    "isVisited": true,
    "hasQuota": true,
    "comments": "Público. No respondieron el correo",
    "lat": 38.364282,
    "lng": -0.480349
  },
  {
    "name": "COSTA BLANCA",
    "address": "Avda. de las Naciones, 9, C.P. 03450",
    "phone": "965 91 97 50",
    "email": "03015661@edu.gva.es",
    "id": 6,
    "web": "https://",
    "isVisited": false,
    "hasQuota": false,
    "comments": "",
    "lat": 38.3826261,
    "lng": -0.4193618
  },
  {
    "name": "EL FARO",
    "address": "Calle Sargo, 4, C.P. 03540",
    "phone": "965 93 73 90",
    "email": "03015351@edu.gva.es",
    "id": 7,
    "web": "https://",
    "isVisited": false,
    "hasQuota": false,
    "comments": "",
    "lat": 38.35977,
    "lng": -0.4163889
  },
  {
    "name": "EL PALMERAL",
    "address": "Calle Portet de Moraira, 2, C.P. 03008",
    "phone": "965 91 97 60",
    "email": "03011161@edu.gva.es",
    "id": 8,
    "web": "https://",
    "isVisited": false,
    "hasQuota": false,
    "comments": "",
    "lat": 38.3312052,
    "lng": -0.5123466
  },
  {
    "name": "EL TOSSAL",
    "address": "Calle Juanito Santero, 3, C.P. 03005",
    "phone": "965 91 97 70",
    "email": "03009749@edu.gva.es",
    "id": 9,
    "web": "https://",
    "isVisited": false,
    "hasQuota": false,
    "comments": "",
    "lat": 38.352936,
    "lng": -0.4963625
  },
  {
    "name": "EMILIO VARELA",
    "address": "Calle Del Clot, 10, C.P. 03011",
    "phone": "965 91 97 80",
    "email": "03010193@edu.gva.es",
    "id": 11,
    "web": "https://",
    "isVisited": false,
    "hasQuota": false,
    "comments": "",
    "lat": 38.6037757,
    "lng": -0.042608
  },
  {
    "name": "ENRIC VALOR",
    "address": "Calle San Lorenzo, 33, C.P. 03007",
    "phone": "965 91 97 90",
    "email": "03011987@edu.gva.es",
    "id": 12,
    "web": "https://",
    "isVisited": false,
    "hasQuota": false,
    "comments": "",
    "lat": 38.3416171,
    "lng": -0.5129713
  },
  {
    "name": "EUSEBIO SEMPERE",
    "address": "Calle Isidoro Sevilla, 2, C.P. 03009",
    "phone": "965 93 62 10",
    "email": "03000692@edu.gva.es",
    "id": 13,
    "web": "https://",
    "isVisited": false,
    "hasQuota": false,
    "comments": "",
    "lat": 38.3707017,
    "lng": -0.5037137
  },
  {
    "name": "FLORIDA",
    "address": "Calle Pianista Gonzalo Soriano, 3, C.P. 03007",
    "phone": "965 93 62 20",
    "email": "03001581@edu.gva.es",
    "id": 14,
    "web": "https://",
    "isVisited": false,
    "hasQuota": false,
    "comments": "",
    "lat": 38.3399537,
    "lng": -0.50814
  },
  {
    "name": "GABRIEL MIRÓ",
    "address": "Calle Profesor David Noguera, 2, C.P. 03006",
    "phone": "965 93 62 30",
    "email": "03010201@edu.gva.es",
    "id": 15,
    "web": "https://",
    "isVisited": false,
    "hasQuota": false,
    "comments": "",
    "lat": 38.3462423,
    "lng": -0.5065716
  },
  {
    "name": "GASTON CASTELLÓ",
    "address": "Calle Claudio Coello, 2, C.P. 03010",
    "phone": "965 93 62 40",
    "email": "03011859@edu.gva.es",
    "id": 16,
    "web": "https://",
    "isVisited": false,
    "hasQuota": false,
    "comments": "",
    "lat": 38.3651573,
    "lng": -0.4924835
  },
  {
    "name": "GLORIA FUERTES",
    "address": "Calle Cuarzo, 19, C.P. 03014",
    "phone": "965 93 62 50",
    "email": "03015191@edu.gva.es",
    "id": 17,
    "web": "https://portal.edu.gva.es/ceipgloriafuertesalacant/es/",
    "isVisited": true,
    "hasQuota": true,
    "comments": "Público. Me dieron poca información",
    "lat": 38.37757289730892,
    "lng": -0.48683664584323266
  },
  {
    "name": "ISLA DE TABARCA",
    "address": "Calle Benifallín, 4",
    "phone": "965 93 62 60",
    "email": "03016183@edu.gva.es",
    "id": 18,
    "web": "https://",
    "isVisited": true,
    "hasQuota": true,
    "comments": "Público. SIN bachillerato. SI tiene plazas disponibles",
    "lat": 38.36646419667491,
    "lng": -0.4815028881712653
  },
  {
    "name": "JOAQUÍN SOROLLA",
    "address": "Calle Albacete, s/n, C.P. 03006",
    "phone": "965 93 62 70",
    "email": "03001568@edu.gva.es",
    "id": 19,
    "web": "https://",
    "isVisited": false,
    "hasQuota": false,
    "comments": "",
    "lat": 38.3513049,
    "lng": -0.4981054
  },
  {
    "name": "JOSE CARLOS AGUILERA",
    "address": "Calle Médico Pedro Herrero, s/n, C.P. 03006",
    "phone": "965 93 62 80",
    "email": "03010181@edu.gva.es",
    "id": 20,
    "web": "https://",
    "isVisited": false,
    "hasQuota": false,
    "comments": "",
    "lat": 38.3435122,
    "lng": -0.5001509
  },
  {
    "name": "JUAN BAUTISTA LLORCA",
    "address": "Calle Py y Margall, 2 (Villafranqueza), C.P. 03112",
    "phone": "965 91 87 05",
    "email": "03002317@edu.gva.es",
    "id": 21,
    "web": "https://",
    "isVisited": false,
    "hasQuota": false,
    "comments": "",
    "lat": 38.34557391021108,
    "lng": -0.4852888520517134
  },
  {
    "name": "LA ALBUFERETA",
    "address": "Zeus, 3, C.P. 03016",
    "phone": "965 93 62 90",
    "email": "03011045@edu.gva.es",
    "id": 22,
    "web": "https://",
    "isVisited": false,
    "hasQuota": false,
    "comments": "",
    "lat": 38.3645578,
    "lng": -0.436049
  },
  {
    "name": "LA ALMADRABA",
    "address": "Calle Deportista José Bañón, nº 4, C.P. 03540",
    "phone": "965 93 25 25",
    "email": "03019007@edu.gva.es",
    "id": 23,
    "web": "https://",
    "isVisited": false,
    "hasQuota": false,
    "comments": "",
    "lat": 38.365356,
    "lng": -0.4214818
  },
  {
    "name": "LA CONDOMINA",
    "address": "Avda. Países Escandinavos, 17, C.P. 03540",
    "phone": "965 93 63 00",
    "email": "03002238@edu.gva.es",
    "id": 24,
    "web": "https://",
    "isVisited": false,
    "hasQuota": false,
    "comments": "",
    "lat": 38.3729842,
    "lng": -0.4205598
  },
  {
    "name": "LA PAZ",
    "address": "Calle Abogado Pérez Mirete, 1 Bis, C.P. 03011",
    "phone": "965 93 63 20",
    "email": "03001623@edu.gva.es",
    "id": 25,
    "web": "https://",
    "isVisited": false,
    "hasQuota": false,
    "comments": "",
    "lat": 38.374408,
    "lng": -0.4920563
  },
  {
    "name": "LUCENTUM",
    "address": "Calle Ortega y Gasset, 21, C.P. 03011",
    "phone": "965 93 63 10",
    "email": "03009701@edu.gva.es",
    "id": 26,
    "web": "https://",
    "isVisited": false,
    "hasQuota": false,
    "comments": "",
    "lat": 38.3755975,
    "lng": -0.4939175
  },
  {
    "name": "MANJÓN-CERVANTES",
    "address": "Calle Montero Ríos, 2, C.P. 03012",
    "phone": "965 93 25 15",
    "email": "03000709@edu.gva.es",
    "id": 27,
    "web": "https://portal.edu.gva.es/ceipmanjoncervantes/",
    "isVisited": true,
    "hasQuota": true,
    "comments": "Público. Abiertos a ayudar. Edificio de 4 pisos y una cancha grande",
    "lat": 38.35751260704585,
    "lng": -0.48175670166299045
  },
  {
    "name": "MEDITERRÁNEO",
    "address": "Calle Catedrático Abelardo Rigual, 4, C.P. 03540",
    "phone": "965 93 73 80",
    "email": "03017485@edu.gva.es",
    "id": 28,
    "web": "https://",
    "isVisited": false,
    "hasQuota": false,
    "comments": "",
    "lat": 38.3650153,
    "lng": -0.4220642
  },
  {
    "name": "MONTE BENACANTIL",
    "address": "Calle Vicente Martínez Morella, 16, C.P. 03015",
    "phone": "965 91 96 90",
    "email": "03011057@edu.gva.es",
    "id": 29,
    "web": "https://portal.edu.gva.es/ceipmontebenacantil/es/centro/",
    "isVisited": true,
    "hasQuota": true,
    "comments": "Público. No respondieron el correo",
    "lat": 38.4191326,
    "lng": -0.4467953
  },
  {
    "name": "MORA PUCHOL",
    "address": "Plaza Farmacéutico Luís Gisbert, 4, C.P. 03008",
    "phone": "965 93 25 00",
    "email": "03009971@edu.gva.es",
    "id": 30,
    "web": "https://",
    "isVisited": false,
    "hasQuota": false,
    "comments": "",
    "lat": 38.3383653,
    "lng": -0.5055926
  },
  {
    "name": "NOU D'OCTUBRE",
    "address": "Calle Pinoso, 27, C.P. 03012",
    "phone": "965 91 90 20",
    "email": "03000722@edu.gva.es",
    "id": 31,
    "web": "https://portal.edu.gva.es/ceip9octubrealicante/es/centro/",
    "isVisited": true,
    "hasQuota": true,
    "comments": "Público. Abiertos a ayudar",
    "lat": 38.35985338934596,
    "lng": -0.4810075188615775
  },
  {
    "name": "OSCAR ESPLÁ",
    "address": "Plaza de la Libertad nº 1, C.P. 03010",
    "phone": "965 93 71 05",
    "email": "03001854@edu.gva.es",
    "id": 32,
    "web": "https://",
    "isVisited": false,
    "hasQuota": false,
    "comments": "",
    "lat": 37.9770822,
    "lng": -0.7895988
  },
  {
    "name": "PEDRO DUQUE",
    "address": "Calle Artista Foguerer, 2, C.P. 03015",
    "phone": "965 91 96 80",
    "email": "03001507@edu.gva.es",
    "id": 33,
    "web": "https://portal.edu.gva.es/ceippedroduquealicante/es/inicio/",
    "isVisited": true,
    "hasQuota": true,
    "comments": "Público. No respondieron el correo",
    "lat": 38.3682149,
    "lng": -0.4705527
  },
  {
    "name": "PRÁCTICAS - LA ANEJA",
    "address": "Cat. Jaume Mas i Porcel, s/n, C.P. 03005",
    "phone": "965 93 73 60",
    "email": "03001647@edu.gva.es",
    "id": 34,
    "web": "https://",
    "isVisited": false,
    "hasQuota": false,
    "comments": "",
    "lat": 38.347015727022054,
    "lng": -0.47657694088160013
  },
  {
    "name": "RABASSA",
    "address": "Calle Tubería, 93, C.P. 03009",
    "phone": "965 93 73 40",
    "email": "03018623@edu.gva.es",
    "id": 35,
    "web": "https://",
    "isVisited": false,
    "hasQuota": false,
    "comments": "",
    "lat": 38.3652474,
    "lng": -0.5024343
  },
  {
    "name": "RAFAEL ALTAMIRA",
    "address": "Calle S.C.D. Betis Florida, 34, C.P. 03007",
    "phone": "965 93 63 30",
    "email": "03002101@edu.gva.es",
    "id": 36,
    "web": "https://",
    "isVisited": false,
    "hasQuota": false,
    "comments": "",
    "lat": 38.34897548300129,
    "lng": -0.47832558439724593
  },
  {
    "name": "RAMON LLULL",
    "address": "Calle Santa Felicitas, 8",
    "phone": "965 93 63 40",
    "email": "03011173@edu.gva.es",
    "id": 37,
    "web": "https://",
    "isVisited": false,
    "hasQuota": false,
    "comments": "",
    "lat": 38.3488764,
    "lng": -0.494098
  },
  {
    "name": "SAN BLAS",
    "address": "Avda. Doctor Rico, 11, C.P. 03005",
    "phone": "965 93 63 50",
    "email": "03010491@edu.gva.es",
    "id": 38,
    "web": "https://",
    "isVisited": false,
    "hasQuota": false,
    "comments": "",
    "lat": 38.3524498,
    "lng": -0.497847
  },
  {
    "name": "SAN FERNANDO",
    "address": "Ciudad Real, 33, C.P. 03005",
    "phone": "965 93 63 60",
    "email": "03001490@edu.gva.es",
    "id": 39,
    "web": "https://",
    "isVisited": false,
    "hasQuota": false,
    "comments": "",
    "lat": 38.3550021,
    "lng": -0.4993032
  },
  {
    "name": "SAN FRANCISCO DE ASÍS",
    "address": "Calle Cefeo, 82, C.P. 03006",
    "phone": "965 93 73 70",
    "email": "03001660@edu.gva.es",
    "id": 40,
    "web": "https://",
    "isVisited": false,
    "hasQuota": false,
    "comments": "",
    "lat": 38.3471306,
    "lng": -0.5099995
  },
  {
    "name": "SAN GABRIEL",
    "address": "Calle Músico José Alcaraz, 4, C.P. 03008",
    "phone": "965 93 63 80",
    "email": "03001659@edu.gva.es",
    "id": 41,
    "web": "https://",
    "isVisited": false,
    "hasQuota": false,
    "comments": "",
    "lat": 38.3312375,
    "lng": -0.5149618
  },
  {
    "name": "SAN NICOLÁS DE BARI",
    "address": "Calle Gral. Ros de Olano, 20, C.P. 03010",
    "phone": "965 93 63 70",
    "email": "03009725@edu.gva.es",
    "id": 42,
    "web": "https://",
    "isVisited": false,
    "hasQuota": false,
    "comments": "",
    "lat": 38.35019206996597,
    "lng": -0.47849649466936445
  },
  {
    "name": "SAN ROQUE",
    "address": "Calle Villavieja, 37, C.P. 03002",
    "phone": "965 93 70 45",
    "email": "03000710@edu.gva.es",
    "id": 43,
    "web": "https://",
    "isVisited": false,
    "hasQuota": false,
    "comments": "",
    "lat": 38.3465305,
    "lng": -0.4785737
  },
  {
    "name": "SANTÍSIMA FAZ",
    "address": "Calle Barítono Paco La Torre, s/n, C.P. 03015",
    "phone": "965 93 63 90",
    "email": "03001957@edu.gva.es",
    "id": 44,
    "web": "https://",
    "isVisited": true,
    "hasQuota": true,
    "comments": "Público. No respondieron el correo",
    "lat": 38.37837389411011,
    "lng": -0.48347344615511834
  },
  {
    "name": "SANTO DOMINGO",
    "address": "Plaza Foguerer Tomás Valcárcel, 10, C.P. 03005",
    "phone": "965 93 73 00",
    "email": "03010399@edu.gva.es",
    "id": 45,
    "web": "https://",
    "isVisited": false,
    "hasQuota": false,
    "comments": "",
    "lat": 38.3483485,
    "lng": -0.5013115
  },
  {
    "name": "VIRGEN DEL REMEDIO",
    "address": "Calle Las Palmas, 1, C.P. 03014",
    "phone": "965 93 73 10",
    "email": "03001672@edu.gva.es",
    "id": 46,
    "web": "https://portal.edu.gva.es/virgendelremedio/es/centro/",
    "isVisited": true,
    "hasQuota": true,
    "comments": "Público. No respondieron el correo",
    "lat": 38.371056,
    "lng": -0.4860183
  },
  {
    "name": "VORAMAR",
    "address": "Calle Salabre, 9, C.P. 03540",
    "phone": "965 93 73 20",
    "email": "03014149@edu.gva.es",
    "id": 47,
    "web": "https://",
    "isVisited": false,
    "hasQuota": false,
    "comments": "",
    "lat": 38.3607365,
    "lng": -0.4217628
  },
  {
    "name": "BACAROT",
    "address": "Plaza Madreselva, 8, C.P. 03114",
    "phone": "965 93 71 45",
    "email": "03009816@edu.gva.es",
    "id": 48,
    "web": "https://",
    "isVisited": false,
    "hasQuota": false,
    "comments": "",
    "lat": 38.3197218,
    "lng": -0.5572248
  },
  {
    "name": "LA CAÑADA DEL FENOLLAR",
    "address": "Carretera de la Alcoraya nº 50, C.P. 03699",
    "phone": "965 93 70 05",
    "email": "03002160@edu.gva.es",
    "id": 49,
    "web": "https://",
    "isVisited": false,
    "hasQuota": false,
    "comments": "",
    "lat": 38.3664378,
    "lng": -0.633463
  },
  {
    "name": "LOS ALMENDROS",
    "address": "Calle Iglesia, 2, C.P. 03113",
    "phone": "965 93 71 10",
    "email": "03002241@edu.gva.es",
    "id": 50,
    "web": "https://",
    "isVisited": false,
    "hasQuota": false,
    "comments": "",
    "lat": 38.0806581,
    "lng": -1.0091875
  },
  {
    "name": "VERDEGÁS",
    "address": "Partida Verdegás",
    "phone": "965 91 87 40",
    "email": "03002305@edu.gva.es",
    "id": 51,
    "web": "https://",
    "isVisited": false,
    "hasQuota": false,
    "comments": "",
    "lat": 38.345978947075594,
    "lng": -0.48184363413710024
  },
  {
    "name": "LO MORANT",
    "address": "Calle Pablo Neruda, 7, C.P. 03011",
    "phone": "965 93 70 20",
    "email": "03015324@edu.gva.es",
    "id": 52,
    "web": "https://",
    "isVisited": false,
    "hasQuota": false,
    "comments": "",
    "lat": 38.0606835,
    "lng": -0.8917451
  },
  {
    "name": "SANTO ANGEL DE LA GUARDA",
    "address": "Calle Virgen del Puig, 17, C.P. 03009",
    "phone": "965 93 70 25",
    "email": "03010570@edu.gva.es",
    "id": 53,
    "web": "https://",
    "isVisited": false,
    "hasQuota": false,
    "comments": "",
    "lat": 38.3686743,
    "lng": -0.4992667
  },
  {
    "name": "EL SOMNI",
    "address": "Avda. Miguel Hernández 9, San Juan de Alicante (ubicación provisional)",
    "phone": "965 93 84 70",
    "email": "03020678@edu.gva.es",
    "id": 54,
    "web": "https://",
    "isVisited": false,
    "hasQuota": false,
    "comments": "",
    "lat": 38.346657575864974,
    "lng": -0.4804256450073453
  },
  {
    "name": "AIRE LIBRE",
    "address": "Azahar, 20, C.P. 03559",
    "phone": "965 16 48 18",
    "email": "",
    "id": 55,
    "web": "https://",
    "isVisited": false,
    "hasQuota": false,
    "comments": "",
    "lat": 38.1943933,
    "lng": -0.5804136
  },
  {
    "name": "ALTOZANO",
    "address": "Isla de Corfú, 2, C.P. 03005",
    "phone": "965 92 56 66",
    "email": "",
    "id": 56,
    "web": "https://",
    "isVisited": false,
    "hasQuota": false,
    "comments": "",
    "lat": 38.3558611,
    "lng": -0.501982
  },
  {
    "name": "CALASANCIO",
    "address": "Avda. Denia, 76, C.P. 03016",
    "phone": "965 26 25 10",
    "email": "secretaria@calasancioalicante.org",
    "id": 57,
    "web": "https://calasancioalicante.org",
    "isVisited": true,
    "hasQuota": false,
    "comments": "Colegio concertado. Tiene bachillerato",
    "lat": 38.358431651911715,
    "lng": -0.46810226970587715
  },
  {
    "name": "CASALARGA",
    "address": "Plaza García Lorca, 16, C.P. 03015",
    "phone": "965 18 35 37",
    "email": "casalarga@planalfa.es",
    "id": 58,
    "web": "https://cdcasalarga.es",
    "isVisited": true,
    "hasQuota": true,
    "comments": "Colegio concertado SIN bachillerato",
    "lat": 38.372984513346054,
    "lng": -0.4797182663480157
  },
  {
    "name": "CEU JESÚS MARÍA",
    "address": "Caja de Ahorros, 15, C.P. 03016",
    "phone": "965 26 14 00",
    "email": "",
    "id": 59,
    "web": "https://",
    "isVisited": false,
    "hasQuota": false,
    "comments": "",
    "lat": 38.3675391,
    "lng": -0.4507875
  },
  {
    "name": "DON BOSCO",
    "address": "Avda. Vicente Blasco Ibáñez, 1, C.P. 03005",
    "phone": "965 92 48 42",
    "email": "",
    "id": 60,
    "web": "https://",
    "isVisited": false,
    "hasQuota": false,
    "comments": "",
    "lat": 38.1908992,
    "lng": -0.5821552
  },
  {
    "name": "INMACULADA JESUITAS",
    "address": "Avda. Denia, 92, C.P. 03013",
    "phone": "965 26 81 44",
    "email": "",
    "id": 61,
    "web": "https://colegio-inmaculada.org",
    "isVisited": true,
    "hasQuota": true,
    "comments": "Colegio concertado. Tiene bachillerato",
    "lat": 38.36096964207002,
    "lng": -0.46377590275439773
  },
  {
    "name": "JESUS MARÍA - ASÍS",
    "address": "Algol, 33, C.P. 03006",
    "phone": "965 28 01 13",
    "email": "",
    "id": 62,
    "web": "https://",
    "isVisited": false,
    "hasQuota": false,
    "comments": "",
    "lat": 38.3472254,
    "lng": -0.5138765
  },
  {
    "name": "JESÚS MARÍA - VILLAFRANQUEZA",
    "address": "Camino de las Parras, 5, C.P. 03112",
    "phone": "965 18 17 96",
    "email": "",
    "id": 63,
    "web": "https://",
    "isVisited": false,
    "hasQuota": false,
    "comments": "",
    "lat": 38.3842883,
    "lng": -0.4778458
  },
  {
    "name": "MARÍA AUXILIADORA",
    "address": "Isla de Corfu, 7, C.P. 03005",
    "phone": "965 92 62 15",
    "email": "",
    "id": 65,
    "web": "https://",
    "isVisited": false,
    "hasQuota": false,
    "comments": "",
    "lat": 38.3564901,
    "lng": -0.5083722
  },
  {
    "name": "NAZARET",
    "address": "Avda. Dr. Jiménez Díaz, 27, C.P. 03005",
    "phone": "965 17 18 15",
    "email": "",
    "id": 67,
    "web": "https://",
    "isVisited": false,
    "hasQuota": false,
    "comments": "",
    "lat": 38.3576942,
    "lng": -0.4993042
  },
  {
    "name": "NTRA. SRA. DE LOS ÁNGELES",
    "address": "Pardo Bazán, 8, C.P. 03010",
    "phone": "965 17 04 17",
    "email": "",
    "id": 68,
    "web": "https://",
    "isVisited": false,
    "hasQuota": false,
    "comments": "",
    "lat": 38.1246922,
    "lng": -0.6833878
  },
  {
    "name": "NTRA. SRA DEL REMEDIO",
    "address": "Paseo de Campoamor, 4, C.P. 03010",
    "phone": "965 24 69 90",
    "email": "",
    "id": 69,
    "web": "https://",
    "isVisited": false,
    "hasQuota": false,
    "comments": "",
    "lat": 38.3537544,
    "lng": -0.4863349
  },
  {
    "name": "SAGRADA FAMILIA",
    "address": "Fco. Carratalá Cernuda, 13, C.P. 03010",
    "phone": "965 25 28 75",
    "email": "",
    "id": 70,
    "web": "https://",
    "isVisited": false,
    "hasQuota": false,
    "comments": "",
    "lat": 38.34784304755943,
    "lng": -0.47785109481749577
  },
  {
    "name": "SAGRADO CORAZÓN",
    "address": "Isla de Corfú, 5, C.P. 03005",
    "phone": "965 13 09 41",
    "email": "",
    "id": 71,
    "web": "https://",
    "isVisited": false,
    "hasQuota": false,
    "comments": "",
    "lat": 38.3557757,
    "lng": -0.5052808
  },
  {
    "name": "SAGRADOS CORAZONES",
    "address": "Camino Cruz de Piedra, 21, C.P. 03015",
    "phone": "965 26 17 28",
    "email": "info@sagradoscorazones.es",
    "id": 72,
    "web": "https://sagradoscorazones.es",
    "isVisited": true,
    "hasQuota": true,
    "comments": "Colegio concertado. Tiene bachillerato",
    "lat": 38.360438,
    "lng": -0.4675355
  },
  {
    "name": "SAN AGUSTÍN",
    "address": "Pintor Pedro Camacho, 2",
    "phone": "965 15 60 70",
    "email": "info@agustinosalicante.es",
    "id": 73,
    "web": "https://agustinosalicante.es/",
    "isVisited": true,
    "hasQuota": false,
    "comments": "Colegio concertado. Tiene bachillerato",
    "lat": 38.3719228,
    "lng": -0.4762008
  },
  {
    "name": "SAN ANTONIO DE PADUA",
    "address": "Plaza San Antonio, 1, C.P. 03004",
    "phone": "965 20 49 00",
    "email": "",
    "id": 74,
    "web": "https://",
    "isVisited": false,
    "hasQuota": false,
    "comments": "",
    "lat": 38.5682312,
    "lng": -0.850516
  },
  {
    "name": "SAN JOSÉ",
    "address": "Martos, 7, C.P. 03012",
    "phone": "965 25 47 48",
    "email": "",
    "id": 75,
    "web": "https://colegiosanjosehijascaridad.es/",
    "isVisited": true,
    "hasQuota": true,
    "comments": "Colegio concertado. Tiene bachillerato",
    "lat": 38.3583087,
    "lng": -0.481309
  },
  {
    "name": "SAN JOSÉ DE CAROLINAS",
    "address": "Garbinet, 87, C.P. 03012",
    "phone": "965 25 21 90",
    "email": "ccsjcarolinas@gmail.com",
    "id": 76,
    "web": "https://nuke.sanjosedecarolinas.es/",
    "isVisited": true,
    "hasQuota": false,
    "comments": "Colegio concertado. Tiene bachillerato",
    "lat": 38.36020766312515,
    "lng": -0.48060868817152774
  },
  {
    "name": "SAN JUAN DE LA CRUZ",
    "address": "General Espartero, 6, C.P. 03012",
    "phone": "965 24 81 81",
    "email": "secretaria1.sanjuandelacruz@gmail.com",
    "id": 78,
    "web": "https://colegiosanjuandelacruzalicante.com/",
    "isVisited": true,
    "hasQuota": false,
    "comments": "Colegio concertado SIN bachillerato. Colegio Laico",
    "lat": 38.3577933,
    "lng": -0.4827884
  },
  {
    "name": "SANTA Mª DEL CARMEN",
    "address": "Madre Elisea Oliver, 2, C.P. 03005",
    "phone": "965 17 47 67",
    "email": "",
    "id": 79,
    "web": "https://",
    "isVisited": false,
    "hasQuota": false,
    "comments": "",
    "lat": 38.3625624,
    "lng": -0.502313
  },
  {
    "name": "SANTA TERESA",
    "address": "Calle Cruz de Piedra, 1, C.P. 03015",
    "phone": "965 26 20 00",
    "email": "info@santateresaalicante.com",
    "id": 80,
    "web": "https://colegiosantateresaalicante.org/",
    "isVisited": true,
    "hasQuota": false,
    "comments": "Colegio concertado. Tiene bachillerato",
    "lat": 38.3643267,
    "lng": -0.4631085
  },
  {
    "name": "SANTÍSIMO SACRAMENTO FEYDA",
    "address": "Calle Nou D'Octubre, 1, C.P. 03012",
    "phone": "965 25 83 56",
    "email": "secretaria@colegiofeyda.com",
    "id": 81,
    "web": "https://colegiofeyda.com/",
    "isVisited": true,
    "hasQuota": true,
    "comments": "Colegio concertado. Tiene bachillerato. Es muy grande. Tiene buen parque",
    "lat": 38.35638656223478,
    "lng": -0.4845830881717094
  },
  {
    "name": "VIRGEN DEL ROSARIO",
    "address": "Plaza Florida Portazgo, 6, C.P. 03006",
    "phone": "965 11 01 52",
    "email": "",
    "id": 82,
    "web": "https://",
    "isVisited": false,
    "hasQuota": false,
    "comments": "",
    "lat": 38.3465792,
    "lng": -0.5090178
  },
  {
    "name": "ÁNGEL DE LA GUARDA",
    "address": "Duque de Rivas, 10, C.P. 03016",
    "phone": "965 26 18 99",
    "email": "",
    "id": 83,
    "web": "https://",
    "isVisited": false,
    "hasQuota": false,
    "comments": "",
    "lat": 38.3647691,
    "lng": -0.4556746
  },
  {
    "name": "ESCUELA EUROPEA \"LA CONDOMINA\"",
    "address": "Avda. Locutor Vicente Hipólito, s/n, C.P. 03540",
    "phone": "965 26 95 95",
    "email": "",
    "id": 84,
    "web": "https://",
    "isVisited": false,
    "hasQuota": false,
    "comments": "",
    "lat": 38.3715698,
    "lng": -0.4345249
  },
  {
    "name": "COLEGIO BRITÁNICO",
    "address": "Glorieta del Reino Unido, 5, C.P. 03008",
    "phone": "965 10 63 51",
    "email": "",
    "id": 85,
    "web": "https://",
    "isVisited": false,
    "hasQuota": false,
    "comments": "",
    "lat": 38.3143899,
    "lng": -0.5201275
  },
  {
    "name": "EL VALLE",
    "address": "Avda. de la Condomina 65",
    "phone": "965 15 56 19",
    "email": "",
    "id": 86,
    "web": "https://",
    "isVisited": false,
    "hasQuota": false,
    "comments": "",
    "lat": 38.3637609,
    "lng": -0.4255642
  },
  {
    "name": "8 DE MARZO",
    "address": "Ciudad de Matanzas s/n, C.P. 03005",
    "phone": "965 93 65 35",
    "email": "",
    "id": 87,
    "web": "https://",
    "isVisited": false,
    "hasQuota": false,
    "comments": "",
    "lat": 38.3603298,
    "lng": -0.5038886
  },
  {
    "name": "ANTONIO J. CAVANILLES",
    "address": "Avda. Lorenzo Carbonell, 32, C.P. 03007",
    "phone": "965 93 65 00",
    "email": "",
    "id": 88,
    "web": "https://",
    "isVisited": false,
    "hasQuota": false,
    "comments": "",
    "lat": 38.3394328,
    "lng": -0.5162765
  },
  {
    "name": "BAHÍA BABEL",
    "address": "Paraguay, 6, C.P. 03008",
    "phone": "965 93 65 65",
    "email": "",
    "id": 89,
    "web": "https://",
    "isVisited": false,
    "hasQuota": false,
    "comments": "",
    "lat": 38.190248,
    "lng": -0.5434498
  },
  {
    "name": "CABO DE LAS HUERTAS",
    "address": "Avda. Costablanca, 17, C.P. 03540",
    "phone": "965 93 65 70",
    "email": "",
    "id": 90,
    "web": "https://",
    "isVisited": false,
    "hasQuota": false,
    "comments": "",
    "lat": 38.34182000443657,
    "lng": -0.47968419891209757
  },
  {
    "name": "DOCTOR BALMIS",
    "address": "La Cerámica, 24, C.P. 03010",
    "phone": "965 93 65 40",
    "email": "",
    "id": 91,
    "web": "https://",
    "isVisited": false,
    "hasQuota": false,
    "comments": "",
    "lat": 38.0808559,
    "lng": -0.8323216
  },
  {
    "name": "EL PLÁ",
    "address": "Avda. Ciudad León de Nicaragua, 8, C.P. 03012",
    "phone": "965 93 65 30",
    "email": "03010788@edu.gva.es",
    "id": 92,
    "web": "https://",
    "isVisited": true,
    "hasQuota": false,
    "comments": "Me respondieron el correo solo diciendo que no hay plazas disponibles",
    "lat": 38.3602634,
    "lng": -0.4695985
  },
  {
    "name": "LEONARDO DA VINCI",
    "address": "Avda. Baronía de Polop, 10, C.P. 03011",
    "phone": "965 93 65 15",
    "email": "",
    "id": 98,
    "web": "https://",
    "isVisited": false,
    "hasQuota": false,
    "comments": "",
    "lat": 38.3768966,
    "lng": -0.4878975
  },
  {
    "name": "PLAYA DE SAN JUAN",
    "address": "Avda. San Sebastián, 39, C.P. 03540",
    "phone": "965 93 65 80",
    "email": "",
    "id": 101,
    "web": "https://",
    "isVisited": false,
    "hasQuota": false,
    "comments": "",
    "lat": 38.1381945,
    "lng": -0.6735956
  },
  {
    "name": "SAN BLAS",
    "address": "Isla de Corfú, 9, C.P. 03005",
    "phone": "965 93 65 60",
    "email": "",
    "id": 102,
    "web": "https://",
    "isVisited": false,
    "hasQuota": false,
    "comments": "",
    "lat": 38.3578466,
    "lng": -0.5085566
  },
  {
    "name": "RADIO EXTERIOR",
    "address": "Deportista José Bañón, s/n, C.P. 03540",
    "phone": "965 93 65 90",
    "email": "",
    "id": 103,
    "web": "https://",
    "isVisited": false,
    "hasQuota": false,
    "comments": "",
    "lat": 38.365356,
    "lng": -0.4214818
  },
  {
    "name": "VIRGEN DEL REMEDIO",
    "address": "Avda. Baronía de Polop, 8",
    "phone": "965 93 65 10",
    "email": "",
    "id": 104,
    "web": "https://",
    "isVisited": false,
    "hasQuota": false,
    "comments": "",
    "lat": 38.3768966,
    "lng": -0.4878975
  },
  {
    "name": "ALBERTO BARRIOS",
    "address": "Plaza de las Escuelas, 5, C.P. 03011",
    "phone": "966 47 86 80",
    "email": "03012891@edu.gva.es",
    "id": 105,
    "web": "https://",
    "isVisited": false,
    "hasQuota": false,
    "comments": "",
    "lat": 38.3758779,
    "lng": -0.4919028
  },
  {
    "name": "TÓMBOLA",
    "address": "Travesía Virgen del Puig, s/n, C.P. 03009",
    "phone": "965 91 83 40",
    "email": "03012876@edu.gva.es",
    "id": 110,
    "web": "https://",
    "isVisited": false,
    "hasQuota": false,
    "comments": "",
    "lat": 38.343206524467256,
    "lng": -0.4789179641144109
  }
]
