[
  {
    "name": "AUSÍAS MARCH",
    "address": "Calle Ceres, 24, C.P. 03009",
    "phone": "965 91 90 30",
    "email": "03001544@edu.gva.es",
    "isVisited": false,
    "hasQuota": false,
    "comments": "",
    "lat": 38.0889209,
    "lng": -0.7066778
  },
  {
    "name": "AZORÍN",
    "address": "Calle Biólogo Konrad Lorenz, 5, C.P. 03015",
    "phone": "965 93 25 10",
    "email": "03009683@edu.gva.es",
    "isVisited": false,
    "hasQuota": false,
    "comments": "",
    "lat": 38.3638571,
    "lng": -0.4709037
  },
  {
    "name": "BENALÚA",
    "address": "Calle Doctor Just, 70, C.P. 03007",
    "phone": "965 91 90 40",
    "email": "03000734@edu.gva.es",
    "isVisited": false,
    "hasQuota": false,
    "comments": "",
    "lat": 38.3413575,
    "lng": -0.497246
  },
  {
    "name": "CAMPOAMOR",
    "address": "Paseo de Campoamor, 1, C.P. 03010",
    "phone": "965 91 90 60",
    "email": "03000795@edu.gva.es",
    "isVisited": false,
    "hasQuota": false,
    "comments": "",
    "lat": 38.3537544,
    "lng": -0.4863349
  },
  {
    "name": "CARLES I",
    "address": "Calle Alonso Cano, 19, C.P. 03014",
    "phone": "965 93 25 22",
    "email": "03010016@edu.gva.es",
    "isVisited": false,
    "hasQuota": false,
    "comments": "",
    "lat": 38.3724104,
    "lng": -0.483092
  },
  {
    "name": "CERVANTES",
    "address": "Avda. de las Naciones, 9, C.P. 03450",
    "phone": "96 514 10 64",
    "email": "03005899@edu.gva.es",
    "isVisited": false,
    "hasQuota": false,
    "comments": "",
    "lat": 38.3826261,
    "lng": -0.4193618
  },
  {
    "name": "CERVANTES (SAN GABRIEL)",
    "address": "Calle Sargo, 4, C.P. 03540",
    "phone": "96 516 91 75",
    "email": "03005200@edu.gva.es",
    "isVisited": false,
    "hasQuota": false,
    "comments": "",
    "lat": 38.35977,
    "lng": -0.4163889
  },
  {
    "name": "CIUDAD DEL MAR",
    "address": "Glorieta del Reino Unido, 5, C.P. 03008",
    "phone": "965 91 90 50",
    "email": "03008878@edu.gva.es",
    "isVisited": false,
    "hasQuota": false,
    "comments": "",
    "lat": 38.3143899,
    "lng": -0.5201275
  },
  {
    "name": "CONDOMINA",
    "address": "Avda. de la Condomina 65",
    "phone": "965 15 64 21",
    "email": "03010776@edu.gva.es",
    "isVisited": false,
    "hasQuota": false,
    "comments": "",
    "lat": 38.3637609,
    "lng": -0.4255642
  },
  {
    "name": "EL CABO",
    "address": "Ciudad de Matanzas s/n, C.P. 03005",
    "phone": "965 93 02 85",
    "email": "03006051@edu.gva.es",
    "isVisited": false,
    "hasQuota": false,
    "comments": "",
    "lat": 38.3603298,
    "lng": -0.5038886
  },
  {
    "name": "FÁBRICA DE ARMAS",
    "address": "Avda. Lorenzo Carbonell, 32, C.P. 03007",
    "phone": "965 91 90 45",
    "email": "03008830@edu.gva.es",
    "isVisited": false,
    "hasQuota": false,
    "comments": "",
    "lat": 38.3394328,
    "lng": -0.5162765
  },
  {
    "name": "FERNANDO EL CATÓLICO",
    "address": "Paraguay, 6, C.P. 03008",
    "phone": "965 91 95 15",
    "email": "03001854@edu.gva.es",
    "isVisited": false,
    "hasQuota": false,
    "comments": "",
    "lat": 38.190248,
    "lng": -0.5434498
  },
  {
    "name": "GABRIELA MISTRAL",
    "address": "La Cerámica, 24, C.P. 03010",
    "phone": "965 15 61 36",
    "email": "03008866@edu.gva.es",
    "isVisited": false,
    "hasQuota": false,
    "comments": "",
    "lat": 38.0808559,
    "lng": -0.8323216
  },
  {
    "name": "GRANDES ESPAÑOLES",
    "address": "Avda. Ciudad León de Nicaragua, 8, C.P. 03012",
    "phone": "965 93 25 70",
    "email": "03009779@edu.gva.es",
    "isVisited": false,
    "hasQuota": false,
    "comments": "",
    "lat": 38.3602634,
    "lng": -0.4695985
  },
  {
    "name": "ISLA DE TABARCA",
    "address": "Vicente Chavarri, 35, C.P. 03007",
    "phone": "965 91 90 67",
    "email": "03008805@edu.gva.es",
    "isVisited": false,
    "hasQuota": false,
    "comments": "",
    "lat": 38.3408291,
    "lng": -0.5105836
  },
  {
    "name": "JAIME I",
    "address": "Alonso Cano, 80, C.P. 03012",
    "phone": "965 93 25 33",
    "email": "03003418@edu.gva.es",
    "isVisited": false,
    "hasQuota": false,
    "comments": "",
    "lat": 38.3724104,
    "lng": -0.483092
  },
  {
    "name": "JORGE JUAN",
    "address": "Doctor Cristóbal Pardo, nº 4, C.P. 03015",
    "phone": "965 93 25 44",
    "email": "03008854@edu.gva.es",
    "isVisited": false,
    "hasQuota": false,
    "comments": "",
    "lat": 38.3633149,
    "lng": -0.4731688
  },
  {
    "name": "LA ALMADRABA",
    "address": "Wenceslao Fernández Flores, 2, C.P. 03004",
    "phone": "965 25 34 40",
    "email": "03008879@edu.gva.es",
    "isVisited": false,
    "hasQuota": false,
    "comments": "",
    "lat": 38.349688,
    "lng": -0.4934013
  },
  {
    "name": "LA FLORIDA",
    "address": "Barítono Paco Latorre, 1, C.P. 03015",
    "phone": "965 93 25 55",
    "email": "03008831@edu.gva.es",
    "isVisited": false,
    "hasQuota": false,
    "comments": "",
    "lat": 38.3760973,
    "lng": -0.4816768
  },
  {
    "name": "LA MUÑOZ",
    "address": "Avda. Baronía de Polop, 10, C.P. 03011",
    "phone": "965 93 25 66",
    "email": "03008806@edu.gva.es",
    "isVisited": false,
    "hasQuota": false,
    "comments": "",
    "lat": 38.3768966,
    "lng": -0.4878975
  },
  {
    "name": "LA SAGRADA FAMILIA",
    "address": "Poeta Garcilaso, 8, C.P. 03005",
    "phone": "965 26 63 60",
    "email": "03008880@edu.gva.es",
    "isVisited": false,
    "hasQuota": false,
    "comments": "",
    "lat": 38.3505255,
    "lng": -0.4947588
  },
  {
    "name": "LA TORRETA",
    "address": "Avda. San Sebastián, 39, C.P. 03540",
    "phone": "96 516 91 87",
    "email": "03008908@edu.gva.es",
    "isVisited": false,
    "hasQuota": false,
    "comments": "",
    "lat": 38.1381945,
    "lng": -0.6735956
  },
  {
    "name": "LA YELATA",
    "address": "Isla de Corfú, 9, C.P. 03005",
    "phone": "965 26 95 02",
    "email": "03008855@edu.gva.es",
    "isVisited": false,
    "hasQuota": false,
    "comments": "",
    "lat": 38.3578466,
    "lng": -0.5085566
  },
  {
    "name": "LAS NACIONES",
    "address": "Deportista José Bañón, s/n, C.P. 03540",
    "phone": "96 516 91 50",
    "email": "03009093@edu.gva.es",
    "isVisited": false,
    "hasQuota": false,
    "comments": "",
    "lat": 38.365356,
    "lng": -0.4214818
  },
  {
    "name": "LES PARRES MAGDALENA",
    "address": "Avda. Baronía de Polop, 8",
    "phone": "965 93 25 77",
    "email": "03008794@edu.gva.es",
    "isVisited": false,
    "hasQuota": false,
    "comments": "",
    "lat": 38.3768966,
    "lng": -0.4878975
  },
  {
    "name": "LO MORANT",
    "address": "Plaza de las Escuelas, 5, C.P. 03011",
    "phone": "965 93 25 11",
    "email": "03008893@edu.gva.es",
    "isVisited": false,
    "hasQuota": false,
    "comments": "",
    "lat": 38.3758779,
    "lng": -0.4919028
  },
  {
    "name": "LORENZO CARBONELL",
    "address": "Avda. Lorenzo Carbonell, 16, C.P. 03007",
    "phone": "965 91 90 72",
    "email": "03000801@edu.gva.es",
    "isVisited": false,
    "hasQuota": false,
    "comments": "",
    "lat": 38.3394328,
    "lng": -0.5162765
  },
  {
    "name": "MAESTRO CABALLERO",
    "address": "Calle Padre Mariana, 19, C.P. 03004",
    "phone": "965 25 34 17",
    "email": "03003352@edu.gva.es",
    "isVisited": false,
    "hasQuota": false,
    "comments": "",
    "lat": 38.3511567,
    "lng": -0.4868949
  },
  {
    "name": "PADRE MANJÓN",
    "address": "Calle Dr. Clavero, s/n, C.P. 03012",
    "phone": "965 93 25 88",
    "email": "03008817@edu.gva.es",
    "isVisited": false,
    "hasQuota": false,
    "comments": "",
    "lat": 38.3552405,
    "lng": -0.4742887
  },
  {
    "name": "PAU CASALS",
    "address": "Calle Capitán Segarra, 30, C.P. 03004",
    "phone": "965 25 44 60",
    "email": "03008843@edu.gva.es",
    "isVisited": false,
    "hasQuota": false,
    "comments": "",
    "lat": 38.3508375,
    "lng": -0.4870963
  },
  {
    "name": "PLAYAS",
    "address": "Calle Catedrático Jaume Mas Porcel, C.P. 03005",
    "phone": "965 26 18 25",
    "email": "03008911@edu.gva.es",
    "isVisited": false,
    "hasQuota": false,
    "comments": "",
    "lat": 38.3528144,
    "lng": -0.4922785
  },
  {
    "name": "SAN FERNANDO",
    "address": "Calle San Fernando, 30, C.P. 03001",
    "phone": "965 20 58 50",
    "email": "03001210@edu.gva.es",
    "isVisited": false,
    "hasQuota": false,
    "comments": "",
    "lat": 38.3436632,
    "lng": -0.4837057
  },
  {
    "name": "SAN ROQUE",
    "address": "Calle Catedrático Jaume Mas Porcel, s/n, C.P. 03005",
    "phone": "965 93 04 63",
    "email": "03001209@edu.gva.es",
    "isVisited": false,
    "hasQuota": false,
    "comments": "",
    "lat": 38.3528144,
    "lng": -0.4922785
  },
  {
    "name": "SANTA BÁRBARA",
    "address": "Calle del Clot, 8, C.P. 03011",
    "phone": "965 93 25 99",
    "email": "03008932@edu.gva.es",
    "isVisited": false,
    "hasQuota": false,
    "comments": "",
    "lat": 38.603357,
    "lng": -0.0433832
  },
  {
    "name": "VIRGEN DEL REMEDIO",
    "address": "Calle Marqués de Molins, 56, C.P. 03005",
    "phone": "965 26 30 07",
    "email": "03001407@edu.gva.es",
    "isVisited": false,
    "hasQuota": false,
    "comments": "",
    "lat": 38.3492392,
    "lng": -0.4916591
  }
]